[
{"CountryId":"2","Name":"Rabat","Latitude":"34.02199","Longitude":"-6.83762"},
{"CountryId":"2","Name":"Es-Semara","Latitude":"26.73944","Longitude":"-11.67028"},
{"CountryId":"2","Name":"Zoumi","Latitude":"34.79634","Longitude":"-5.34769"},
{"CountryId":"2","Name":"Saddina","Latitude":"35.6003","Longitude":"-5.43139"},
{"CountryId":"2","Name":"Sti Fadma","Latitude":"31.22536","Longitude":"-7.67559"},
{"CountryId":"2","Name":"Zawyat Ech Cheikh","Latitude":"32.64445","Longitude":"-5.91826"},
{"CountryId":"2","Name":"Zaio","Latitude":"34.93635","Longitude":"-2.73183"},
{"CountryId":"2","Name":"Zagora","Latitude":"30.33204","Longitude":"-5.83794"},
{"CountryId":"2","Name":"Youssoufia","Latitude":"32.24896","Longitude":"-8.53253"},
{"CountryId":"2","Name":"Touama","Latitude":"31.53703","Longitude":"-7.49633"},
{"CountryId":"2","Name":"Tmourghout","Latitude":"33.9065","Longitude":"-4.02696"},
{"CountryId":"2","Name":"Tiztoutine","Latitude":"34.97317","Longitude":"-3.14715"},
{"CountryId":"2","Name":"Tiznit","Latitude":"29.6933","Longitude":"-9.72454"},
{"CountryId":"2","Name":"Tizguine","Latitude":"31.24184","Longitude":"-8.31128"},
{"CountryId":"2","Name":"Tit Mellil","Latitude":"33.55717","Longitude":"-7.48475"},
{"CountryId":"2","Name":"Tiouli","Latitude":"30.83471","Longitude":"-8.31036"},
{"CountryId":"2","Name":"Tinghir","Latitude":"31.51485","Longitude":"-5.53834"},
{"CountryId":"2","Name":"Timoulilt","Latitude":"32.20843","Longitude":"-6.46639"},
{"CountryId":"2","Name":"Timezgana","Latitude":"34.59091","Longitude":"-4.73693"},
{"CountryId":"2","Name":"Timezgadiouine","Latitude":"30.88603","Longitude":"-9.04313"},
{"CountryId":"2","Name":"Tilmi","Latitude":"31.79552","Longitude":"-5.78075"},
{"CountryId":"2","Name":"Tifni","Latitude":"31.60646","Longitude":"-6.93666"},
{"CountryId":"2","Name":"Tiflet","Latitude":"33.89306","Longitude":"-6.30694"},
{"CountryId":"2","Name":"Titouan","Latitude":"35.56721","Longitude":"-5.37162"},
{"CountryId":"2","Name":"Timara","Latitude":"33.92667","Longitude":"-6.91222"},
{"CountryId":"2","Name":"Telouet","Latitude":"31.28838","Longitude":"-7.24097"},
{"CountryId":"2","Name":"Tazouta","Latitude":"33.67085","Longitude":"-4.63197"},
{"CountryId":"2","Name":"Taznakht","Latitude":"30.57598","Longitude":"-7.20533"},
{"CountryId":"2","Name":"Tazarine","Latitude":"30.78022","Longitude":"-5.56607"},
{"CountryId":"2","Name":"Taza","Latitude":"34.2318","Longitude":"-4.00676"},
{"CountryId":"2","Name":"Tarsouat","Latitude":"29.58408","Longitude":"-9.02242"},
{"CountryId":"2","Name":"Taroudant","Latitude":"30.46608","Longitude":"-8.87251"},
{"CountryId":"2","Name":"Teroual","Latitude":"34.67444","Longitude":"-5.27418"},
{"CountryId":"2","Name":"Targuist","Latitude":"34.94492","Longitude":"-4.31807"},
{"CountryId":"2","Name":"Tarfaya","Latitude":"27.93988","Longitude":"-12.92694"},
{"CountryId":"2","Name":"Taourirt","Latitude":"34.4132","Longitude":"-2.89348"},
{"CountryId":"2","Name":"Taounza","Latitude":"32.11049","Longitude":"-6.59681"},
{"CountryId":"2","Name":"Taounate","Latitude":"34.53662","Longitude":"-4.638"},
{"CountryId":"2","Name":"Taouloukoult","Latitude":"31.21912","Longitude":"-9.08298"},
{"CountryId":"2","Name":"Taouima","Latitude":"35.1299","Longitude":"-2.9279"},
{"CountryId":"2","Name":"Tan-Tan","Latitude":"28.43907","Longitude":"-11.10311"},
{"CountryId":"2","Name":"Tanger","Latitude":"35.77039","Longitude":"-5.80361"},
{"CountryId":"2","Name":"Tanalt","Latitude":"29.77554","Longitude":"-9.16801"},
{"CountryId":"2","Name":"Tamorot","Latitude":"34.93701","Longitude":"-4.77877"},
{"CountryId":"2","Name":"Tamanar","Latitude":"31.00291","Longitude":"-9.67791"},
{"CountryId":"2","Name":"Talmest","Latitude":"31.81553","Longitude":"-9.33971"},
{"CountryId":"2","Name":"Taliouine","Latitude":"30.53154","Longitude":"-7.91942"},
{"CountryId":"2","Name":"Tahla","Latitude":"34.05122","Longitude":"-4.43163"},
{"CountryId":"2","Name":"Tafraout","Latitude":"29.72023","Longitude":"-8.97188"},
{"CountryId":"2","Name":"Tadrart","Latitude":"30.79548","Longitude":"-9.43347"},
{"CountryId":"2","Name":"Tabouda","Latitude":"34.73343","Longitude":"-5.13863"},
{"CountryId":"2","Name":"Souk el Arba du Gharb","Latitude":"34.68664","Longitude":"-6.00273"},
{"CountryId":"2","Name":"Senada","Latitude":"35.08041","Longitude":"-4.21759"},
{"CountryId":"2","Name":"Skoura","Latitude":"31.06262","Longitude":"-6.5525"},
{"CountryId":"2","Name":"Sidi Yahya ou Saad","Latitude":"32.67896","Longitude":"-5.57517"},
{"CountryId":"2","Name":"Sidi Yahya El Gharb","Latitude":"34.31028","Longitude":"-6.3083"},
{"CountryId":"2","Name":"Sidi Slimane","Latitude":"34.26189","Longitude":"-5.92777"},
{"CountryId":"2","Name":"Sidi Redouane","Latitude":"34.68372","Longitude":"-5.44853"},
{"CountryId":"2","Name":"Sidi Rahhal","Latitude":"31.64064","Longitude":"-7.58857"},
{"CountryId":"2","Name":"Sidi Kacem","Latitude":"34.2249","Longitude":"-5.71041"},
{"CountryId":"2","Name":"Sidi Lamine","Latitude":"32.91307","Longitude":"-5.95997"},
{"CountryId":"2","Name":"Sidi Jaber","Latitude":"32.37121","Longitude":"-6.45804"},
{"CountryId":"2","Name":"Sidi Ifni","Latitude":"29.38266","Longitude":"-10.16799"},
{"CountryId":"2","Name":"Sidi Harazem","Latitude":"34.03375","Longitude":"-4.86164"},
{"CountryId":"2","Name":"Sidi Bousber","Latitude":"34.56569","Longitude":"-5.36053"},
{"CountryId":"2","Name":"Sidi Bou Othmane","Latitude":"31.90168","Longitude":"-7.94193"},
{"CountryId":"2","Name":"Sidi Bennour","Latitude":"32.65213","Longitude":"-8.42627"},
{"CountryId":"2","Name":"Sidi Abdallah","Latitude":"32.55748","Longitude":"-7.83713"},
{"CountryId":"2","Name":"Settat","Latitude":"33.00137","Longitude":"-7.61972"},
{"CountryId":"2","Name":"Selouane","Latitude":"35.06829","Longitude":"-2.92939"},
{"CountryId":"2","Name":"Sifrou","Latitude":"33.82926","Longitude":"-4.83934"},
{"CountryId":"2","Name":"Sali","Latitude":"34.05357","Longitude":"-6.79286"},
{"CountryId":"2","Name":"Saidia","Latitude":"35.08718","Longitude":"-2.23181"},
{"CountryId":"2","Name":"Safi","Latitude":"32.30988","Longitude":"-9.23263"},
{"CountryId":"2","Name":"Rouadi","Latitude":"35.1401","Longitude":"-4.1305"},
{"CountryId":"2","Name":"Rislane","Latitude":"34.75871","Longitude":"-2.43158"},
{"CountryId":"2","Name":"Rhouazi","Latitude":"34.46749","Longitude":"-5.29043"},
{"CountryId":"2","Name":"Reggada","Latitude":"29.5831","Longitude":"-9.70069"},
{"CountryId":"2","Name":"Ourtzagh","Latitude":"34.53478","Longitude":"-4.96992"},
{"CountryId":"2","Name":"Ouled Teima","Latitude":"30.39196","Longitude":"-9.21744"},
{"CountryId":"2","Name":"Oulad Tayeb","Latitude":"33.96452","Longitude":"-4.99772"},
{"CountryId":"2","Name":"Oulad Daoud","Latitude":"32.31902","Longitude":"-8.86965"},
{"CountryId":"2","Name":"Oulad Ayad","Latitude":"32.19828","Longitude":"-6.80521"},
{"CountryId":"2","Name":"Oukaimeden","Latitude":"31.20953","Longitude":"-7.86705"},
{"CountryId":"2","Name":"Ouijjane","Latitude":"29.70976","Longitude":"-9.62199"},
{"CountryId":"2","Name":"Oued Zem","Latitude":"32.86391","Longitude":"-6.57172"},
{"CountryId":"2","Name":"Oued Laou","Latitude":"35.44915","Longitude":"-5.09165"},
{"CountryId":"2","Name":"Oued Amlil","Latitude":"34.19314","Longitude":"-4.25934"},
{"CountryId":"2","Name":"Ouezzane","Latitude":"34.80864","Longitude":"-5.56951"},
{"CountryId":"2","Name":"Ouarzazate","Latitude":"30.91887","Longitude":"-6.90216"},
{"CountryId":"2","Name":"Oualidia","Latitude":"32.733","Longitude":"-9.017"},
{"CountryId":"2","Name":"Nador","Latitude":"35.17387","Longitude":"-2.93393"},
{"CountryId":"2","Name":"Moulay Yaicoub","Latitude":"34.0901","Longitude":"-5.1762"},
{"CountryId":"2","Name":"Moulay Brahim","Latitude":"31.28591","Longitude":"-7.9668"},
{"CountryId":"2","Name":"Moulay Bouchta","Latitude":"34.48993","Longitude":"-5.11186"},
{"CountryId":"2","Name":"Moulay Abdallah","Latitude":"33.19365","Longitude":"-8.58816"},
{"CountryId":"2","Name":"Al Aaroui","Latitude":"35.01275","Longitude":"-3.00252"},
{"CountryId":"2","Name":"Mohammidia","Latitude":"33.70285","Longitude":"-7.37221"},
{"CountryId":"2","Name":"Midelt","Latitude":"32.67962","Longitude":"-4.73447"},
{"CountryId":"2","Name":"Midar","Latitude":"34.93576","Longitude":"-3.53839"},
{"CountryId":"2","Name":"Meknis","Latitude":"33.89447","Longitude":"-5.54924"},
{"CountryId":"2","Name":"Midiouna","Latitude":"33.45614","Longitude":"-7.52168"},
{"CountryId":"2","Name":"Mechra Bel Ksiri","Latitude":"34.57366","Longitude":"-5.95578"},
{"CountryId":"2","Name":"M'Diq","Latitude":"35.68192","Longitude":"-5.32083"},
{"CountryId":"2","Name":"Martil","Latitude":"35.61681","Longitude":"-5.27122"},
{"CountryId":"2","Name":"Marrakech","Latitude":"31.62503","Longitude":"-7.99296"},
{"CountryId":"2","Name":"Madagh","Latitude":"35.00922","Longitude":"-2.33887"},
{"CountryId":"2","Name":"Ifrane","Latitude":"33.52787","Longitude":"-5.10509"},
{"CountryId":"2","Name":"Larache","Latitude":"35.19016","Longitude":"-6.14825"},
{"CountryId":"2","Name":"Lalla Mimouna","Latitude":"34.84956","Longitude":"-6.07228"},
{"CountryId":"2","Name":"Ksar El Kibir","Latitude":"34.99889","Longitude":"-5.90278"},
{"CountryId":"2","Name":"Khouribga","Latitude":"32.8791","Longitude":"-6.91118"},
{"CountryId":"2","Name":"Khinifra","Latitude":"32.93918","Longitude":"-5.66682"},
{"CountryId":"2","Name":"Kerrouchen","Latitude":"32.80019","Longitude":"-5.3213"},
{"CountryId":"2","Name":"Kinitra","Latitude":"34.26747","Longitude":"-6.56263"},
{"CountryId":"2","Name":"Kasba-Tadla","Latitude":"32.59578","Longitude":"-6.27461"},
{"CountryId":"2","Name":"Kariat Arekmane","Latitude":"35.10783","Longitude":"-2.7458"},
{"CountryId":"2","Name":"Karia Ba Mohamed","Latitude":"34.37096","Longitude":"-5.21086"},
{"CountryId":"2","Name":"Jorf","Latitude":"31.49346","Longitude":"-4.40558"},
{"CountryId":"2","Name":"Jerada","Latitude":"34.30906","Longitude":"-2.16202"},
{"CountryId":"2","Name":"Itzer","Latitude":"32.87516","Longitude":"-5.05009"},
{"CountryId":"2","Name":"Isseksi","Latitude":"32.23003","Longitude":"-6.27449"},
{"CountryId":"2","Name":"Inezgane","Latitude":"30.35467","Longitude":"-9.5335"},
{"CountryId":"2","Name":"Imider","Latitude":"31.37063","Longitude":"-5.7877"},
{"CountryId":"2","Name":"Imilchil","Latitude":"32.15719","Longitude":"-5.63284"},
{"CountryId":"2","Name":"Iguidi","Latitude":"30.86025","Longitude":"-7.90042"},
{"CountryId":"2","Name":"Hassi Berkane","Latitude":"34.83947","Longitude":"-2.87575"},
{"CountryId":"2","Name":"Zerkten","Latitude":"31.44015","Longitude":"-7.40349"},
{"CountryId":"2","Name":"Had Kourt","Latitude":"34.62039","Longitude":"-5.72251"},
{"CountryId":"2","Name":"Ouled Frej","Latitude":"32.95173","Longitude":"-8.21835"},
{"CountryId":"2","Name":"Guisser","Latitude":"32.77118","Longitude":"-7.50444"},
{"CountryId":"2","Name":"Guercif","Latitude":"34.23023","Longitude":"-3.34264"},
{"CountryId":"2","Name":"Guenfouda","Latitude":"34.48272","Longitude":"-2.04465"},
{"CountryId":"2","Name":"Guelmim","Latitude":"28.98689","Longitude":"-10.05801"},
{"CountryId":"2","Name":"Goulmima","Latitude":"31.69105","Longitude":"-4.95413"},
{"CountryId":"2","Name":"Galaz","Latitude":"34.53397","Longitude":"-4.79603"},
{"CountryId":"2","Name":"Fifi","Latitude":"34.94744","Longitude":"-5.23146"},
{"CountryId":"2","Name":"Fezna","Latitude":"31.5237","Longitude":"-4.4562"},
{"CountryId":"2","Name":"Fis","Latitude":"34.05976","Longitude":"-4.96531"},
{"CountryId":"2","Name":"Ezzhiliga","Latitude":"33.29729","Longitude":"-6.53835"},
{"CountryId":"2","Name":"Essaouira","Latitude":"31.50956","Longitude":"-9.76732"},
{"CountryId":"2","Name":"Arfoud","Latitude":"31.43611","Longitude":"-4.23278"},
{"CountryId":"2","Name":"El Ksiba","Latitude":"32.56593","Longitude":"-6.0327"},
{"CountryId":"2","Name":"Kalaat M'Gouna","Latitude":"31.23874","Longitude":"-6.12666"},
{"CountryId":"2","Name":"El-Jadida","Latitude":"33.24835","Longitude":"-8.51635"},
{"CountryId":"2","Name":"El Hajeb","Latitude":"33.68931","Longitude":"-5.37389"},
{"CountryId":"2","Name":"Ouaoula","Latitude":"31.87669","Longitude":"-6.77303"},
{"CountryId":"2","Name":"El Aioun Sidi Mellouk","Latitude":"34.58323","Longitude":"-2.51125"},
{"CountryId":"2","Name":"Imzouren","Latitude":"35.15","Longitude":"-3.85"},
{"CountryId":"2","Name":"Derdara","Latitude":"35.10997","Longitude":"-5.28623"},
{"CountryId":"2","Name":"Demnate","Latitude":"31.73369","Longitude":"-7.01023"},
{"CountryId":"2","Name":"Debdou","Latitude":"33.98981","Longitude":"-3.03824"},
{"CountryId":"2","Name":"Dar Ould Zidouh","Latitude":"32.317","Longitude":"-6.9"},
{"CountryId":"2","Name":"Dar Bouazza","Latitude":"33.51522","Longitude":"-7.81785"},
{"CountryId":"2","Name":"Dar Chaoui","Latitude":"35.53104","Longitude":"-5.71758"},
{"CountryId":"2","Name":"Chichaoua","Latitude":"31.54775","Longitude":"-8.75792"},
{"CountryId":"2","Name":"Chefchaouen","Latitude":"35.17072","Longitude":"-5.27059"},
{"CountryId":"2","Name":"Casablanca","Latitude":"33.59645","Longitude":"-7.61548"},
{"CountryId":"2","Name":"Bzou","Latitude":"32.07892","Longitude":"-7.05854"},
{"CountryId":"2","Name":"Brikcha","Latitude":"34.96722","Longitude":"-5.56293"},
{"CountryId":"2","Name":"Bouznika","Latitude":"33.78407","Longitude":"-7.15817"},
{"CountryId":"2","Name":"Bouskoura","Latitude":"33.44933","Longitude":"-7.64852"},
{"CountryId":"2","Name":"Boumia","Latitude":"32.72697","Longitude":"-5.09534"},
{"CountryId":"2","Name":"Boulemane","Latitude":"33.36624","Longitude":"-4.7311"},
{"CountryId":"2","Name":"Boulaouane","Latitude":"32.86382","Longitude":"-8.05802"},
{"CountryId":"2","Name":"Boudinar","Latitude":"35.22227","Longitude":"-3.60941"},
{"CountryId":"2","Name":"Bouarfa","Latitude":"32.53149","Longitude":"-1.9605"},
{"CountryId":"2","Name":"Bouaboute","Latitude":"31.26688","Longitude":"-9.18281"},
{"CountryId":"2","Name":"Bigoudine","Latitude":"30.71908","Longitude":"-9.21145"},
{"CountryId":"2","Name":"Bhalil","Latitude":"33.84915","Longitude":"-4.8717"},
{"CountryId":"2","Name":"Berkane","Latitude":"34.9282","Longitude":"-2.3295"},
{"CountryId":"2","Name":"Bini-Mellal","Latitude":"32.33612","Longitude":"-6.35526"},
{"CountryId":"2","Name":"Berrechid","Latitude":"33.27098","Longitude":"-7.58474"},
{"CountryId":"2","Name":"Bab Taza","Latitude":"35.05872","Longitude":"-5.19767"},
{"CountryId":"2","Name":"Azrou","Latitude":"33.43741","Longitude":"-5.2227"},
{"CountryId":"2","Name":"Azilal","Latitude":"31.96321","Longitude":"-6.5674"},
{"CountryId":"2","Name":"Azgour","Latitude":"31.35","Longitude":"-7.5"},
{"CountryId":"2","Name":"Azemmour","Latitude":"33.28841","Longitude":"-8.34509"},
{"CountryId":"2","Name":"Assoul","Latitude":"31.94598","Longitude":"-5.21403"},
{"CountryId":"2","Name":"Assilah","Latitude":"35.4645","Longitude":"-6.0379"},
{"CountryId":"2","Name":"Argana","Latitude":"30.78252","Longitude":"-9.12096"},
{"CountryId":"2","Name":"Arbaoua","Latitude":"34.91354","Longitude":"-5.93111"},
{"CountryId":"2","Name":"Arazane","Latitude":"30.50572","Longitude":"-8.60949"},
{"CountryId":"2","Name":"Aourir","Latitude":"30.49723","Longitude":"-9.66988"},
{"CountryId":"2","Name":"Aoulouz","Latitude":"30.67933","Longitude":"-8.17638"},
{"CountryId":"2","Name":"Aoufous","Latitude":"31.69131","Longitude":"-4.18177"},
{"CountryId":"2","Name":"Amouguer","Latitude":"30.78411","Longitude":"-5.23382"},
{"CountryId":"2","Name":"Amizmiz","Latitude":"31.21692","Longitude":"-8.23318"},
{"CountryId":"2","Name":"Amerzgane","Latitude":"31.04652","Longitude":"-7.21222"},
{"CountryId":"2","Name":"Amersid","Latitude":"32.75035","Longitude":"-4.46726"},
{"CountryId":"2","Name":"Alnif","Latitude":"31.11545","Longitude":"-5.16885"},
{"CountryId":"2","Name":"Almis Marmoucha","Latitude":"33.32603","Longitude":"-4.17834"},
{"CountryId":"2","Name":"El Khmissat","Latitude":"33.82586","Longitude":"-6.07147"},
{"CountryId":"2","Name":"Al Hoceima","Latitude":"35.23834","Longitude":"-3.92814"},
{"CountryId":"2","Name":"Aknoul","Latitude":"34.65297","Longitude":"-3.86491"},
{"CountryId":"2","Name":"Ajdir","Latitude":"35.19658","Longitude":"-3.90306"},
{"CountryId":"2","Name":"Anergui","Latitude":"32.06757","Longitude":"-5.93329"},
{"CountryId":"2","Name":"Ain Leuh","Latitude":"33.2902","Longitude":"-5.33693"},
{"CountryId":"2","Name":"Ain Bni Mathar","Latitude":"34.02135","Longitude":"-2.02801"},
{"CountryId":"2","Name":"Ahfir","Latitude":"34.95421","Longitude":"-2.10712"},
{"CountryId":"2","Name":"Aguelmous","Latitude":"33.1578","Longitude":"-5.84807"},
{"CountryId":"2","Name":"Agdz","Latitude":"30.6938","Longitude":"-6.4481"},
{"CountryId":"2","Name":"Agadir Melloul","Latitude":"30.26656","Longitude":"-7.82779"},
{"CountryId":"2","Name":"Agadir","Latitude":"30.41713","Longitude":"-9.59925"},
{"CountryId":"2","Name":"Adassil","Latitude":"31.11028","Longitude":"-8.48751"},
{"CountryId":"2","Name":"Skhirate","Latitude":"33.85295","Longitude":"-7.03717"},
{"CountryId":"2","Name":"Abadou","Latitude":"31.54249","Longitude":"-7.2613"},
{"CountryId":"2","Name":"Tidili Mesfioua","Latitude":"31.46001","Longitude":"-7.60859"},
{"CountryId":"2","Name":"M'Hamid El Ghizlane","Latitude":"29.82793","Longitude":"-5.72844"},
{"CountryId":"2","Name":"Taghazout","Latitude":"30.54632","Longitude":"-9.70778"},
{"CountryId":"2","Name":"Smimou","Latitude":"31.20713","Longitude":"-9.70394"},
{"CountryId":"2","Name":"Tizgane","Latitude":"35.39233","Longitude":"-5.01239"},
{"CountryId":"2","Name":"Bouarouss","Latitude":"34.36695","Longitude":"-4.81044"},
{"CountryId":"2","Name":"Azla","Latitude":"35.55224","Longitude":"-5.24355"},
{"CountryId":"2","Name":"Boukhalef","Latitude":"35.64437","Longitude":"-5.91365"},
{"CountryId":"2","Name":"Boujniba","Latitude":"32.89666","Longitude":"-6.781"},
{"CountryId":"2","Name":"Errachidia","Latitude":"31.93294","Longitude":"-4.42306"},
{"CountryId":"2","Name":"Dakhla","Latitude":"23.70164","Longitude":"-15.929"},
{"CountryId":"2","Name":"Akhfennir","Latitude":"28.09527","Longitude":"-12.05146"},
{"CountryId":"2","Name":"Gueltat Zemmour","Latitude":"25.14056","Longitude":"-12.37187"},
{"CountryId":"2","Name":"Bni Bouayach","Latitude":"35.09531","Longitude":"-3.83777"},
{"CountryId":"2","Name":"Imlili","Latitude":"23.28757","Longitude":"-15.96188"},
{"CountryId":"2","Name":"Al Hoceima","Latitude":"35.23834","Longitude":"-3.92814"},
{"CountryId":"2","Name":"Oujda","Latitude":"34.67917","Longitude":"-1.91924"},
{"CountryId":"2","Name":"Driouch","Latitude":"34.97541","Longitude":"-3.3866"},
{"CountryId":"2","Name":"Figuig","Latitude":"32.10909","Longitude":"-1.22903"},
{"CountryId":"2","Name":"Khimisset","Latitude":"33.82586","Longitude":"-6.07147"},
{"CountryId":"2","Name":"Fquih Ben Salah","Latitude":"32.49882","Longitude":"-6.6867"},
{"CountryId":"2","Name":"Benslimane","Latitude":"33.61392","Longitude":"-7.12186"},
{"CountryId":"2","Name":"Tahannaout","Latitude":"31.35262","Longitude":"-7.95212"},
{"CountryId":"2","Name":"El Kelai des Sraghna","Latitude":"32.05282","Longitude":"-7.4072"},
{"CountryId":"2","Name":"Benguirir","Latitude":"32.24419","Longitude":"-7.95332"},
{"CountryId":"2","Name":"Biougra","Latitude":"30.21734","Longitude":"-9.37114"},
{"CountryId":"2","Name":"Tata","Latitude":"29.742941","Longitude":"-7.972599"},
{"CountryId":"2","Name":"Assa","Latitude":"28.61074","Longitude":"-9.42008"},
{"CountryId":"2","Name":"Laiyoune","Latitude":"27.15913","Longitude":"-13.20753"},
{"CountryId":"2","Name":"Boujdour","Latitude":"26.076521","Longitude":"-14.499041"},
{"CountryId":"2","Name":"Aousserd","Latitude":"22.55015","Longitude":"-14.32859"},
{"CountryId":"2","Name":"Nouaceur","Latitude":"33.435760465","Longitude":"-7.6762839"}
]